[
  {
    "name": "Unknown Event",
    "slug": "unknown-event",
    "description": "No description available",
    "url": "https://vancouversymphony.ca/events-and-tickets/",
    "venue": {
      "name": "Orpheum Theatre",
      "address": "601 Smithe St, Vancouver, BC V6B 3L4",
      "city": "Vancouver",
      "province": "BC",
      "country": "Canada",
      "coordinates": {
        "lat": 49.2802,
        "lng": -123.1207
      }
    },
    "startDate": "2025-07-15T21:09:42.032Z",
    "endDate": "2025-07-15T21:09:42.032Z",
    "imageUrl": "",
    "ticketUrl": "",
    "source": "orpheum",
    "scraped": "2025-07-15T21:09:42.033Z"
  },
  {
    "name": "Unknown Event",
    "slug": "unknown-event",
    "description": "No description available",
    "url": "https://vancouversymphony.ca/events-and-tickets/",
    "venue": {
      "name": "Orpheum Theatre",
      "address": "601 Smithe St, Vancouver, BC V6B 3L4",
      "city": "Vancouver",
      "province": "BC",
      "country": "Canada",
      "coordinates": {
        "lat": 49.2802,
        "lng": -123.1207
      }
    },
    "startDate": "2025-07-15T21:09:42.033Z",
    "endDate": "2025-07-15T21:09:42.033Z",
    "imageUrl": "",
    "ticketUrl": "",
    "source": "orpheum",
    "scraped": "2025-07-15T21:09:42.033Z"
  },
  {
    "name": "Unknown Event",
    "slug": "unknown-event",
    "description": "No description available",
    "url": "https://vancouversymphony.ca/events-and-tickets/",
    "venue": {
      "name": "Orpheum Theatre",
      "address": "601 Smithe St, Vancouver, BC V6B 3L4",
      "city": "Vancouver",
      "province": "BC",
      "country": "Canada",
      "coordinates": {
        "lat": 49.2802,
        "lng": -123.1207
      }
    },
    "startDate": "2025-07-15T21:09:42.033Z",
    "endDate": "2025-07-15T21:09:42.033Z",
    "imageUrl": "",
    "ticketUrl": "https://www.vancouversymphony.ca/events-and-tickets/#",
    "source": "orpheum",
    "scraped": "2025-07-15T21:09:42.033Z"
  },
  {
    "name": "Unknown Event",
    "slug": "unknown-event",
    "description": "No description available",
    "url": "https://vancouversymphony.ca/events-and-tickets/",
    "venue": {
      "name": "Orpheum Theatre",
      "address": "601 Smithe St, Vancouver, BC V6B 3L4",
      "city": "Vancouver",
      "province": "BC",
      "country": "Canada",
      "coordinates": {
        "lat": 49.2802,
        "lng": -123.1207
      }
    },
    "startDate": "2025-07-15T21:09:42.033Z",
    "endDate": "2025-07-15T21:09:42.033Z",
    "imageUrl": "",
    "ticketUrl": "",
    "source": "orpheum",
    "scraped": "2025-07-15T21:09:42.033Z"
  },
  {
    "name": "Unknown Event",
    "slug": "unknown-event",
    "description": "No description available",
    "url": "https://vancouversymphony.ca/events-and-tickets/",
    "venue": {
      "name": "Orpheum Theatre",
      "address": "601 Smithe St, Vancouver, BC V6B 3L4",
      "city": "Vancouver",
      "province": "BC",
      "country": "Canada",
      "coordinates": {
        "lat": 49.2802,
        "lng": -123.1207
      }
    },
    "startDate": "2025-07-15T21:09:42.033Z",
    "endDate": "2025-07-15T21:09:42.033Z",
    "imageUrl": "",
    "ticketUrl": "https://www.vancouversymphony.ca/events-and-tickets/#",
    "source": "orpheum",
    "scraped": "2025-07-15T21:09:42.033Z"
  },
  {
    "name": "Unknown Event",
    "slug": "unknown-event",
    "description": "No description available",
    "url": "https://vancouversymphony.ca/events-and-tickets/",
    "venue": {
      "name": "Orpheum Theatre",
      "address": "601 Smithe St, Vancouver, BC V6B 3L4",
      "city": "Vancouver",
      "province": "BC",
      "country": "Canada",
      "coordinates": {
        "lat": 49.2802,
        "lng": -123.1207
      }
    },
    "startDate": "2025-07-15T21:09:42.033Z",
    "endDate": "2025-07-15T21:09:42.033Z",
    "imageUrl": "",
    "ticketUrl": "",
    "source": "orpheum",
    "scraped": "2025-07-15T21:09:42.033Z"
  }
]